[
  {
    "id": "poi_001",
    "name": "Đỉnh Fansipan (Sun World Fansipan Legend)",
    "category": "diem_ngam_canh",
    "commune": "Hoàng Liên",
    "lat": 22.3034,
    "lng": 103.775,
    "address": "Dãy Hoàng Liên Sơn, thị xã Sa Pa, Lào Cai",
    "description": "Nóc nhà Đông Dương cao 3.143m, lên đỉnh bằng tàu hỏa leo núi và cáp treo (vé cáp treo 715.000đ người lớn, 525.000đ trẻ em). Trên đỉnh có quần thể tâm linh Kim Sơn Bảo Thắng Tự và đại tượng Phật A Di Đà bằng đồng lớn nhất Việt Nam.",
    "best_season": "Thg10-Thg4 (săn mây)",
    "rating": 4.9
  },
  {
    "id": "poi_002",
    "name": "Nhà thờ đá Sa Pa",
    "category": "diem_ngam_canh",
    "commune": "Trung tâm Sa Pa",
    "lat": 22.3357,
    "lng": 103.8442,
    "address": "Trung tâm thị xã Sa Pa, Lào Cai",
    "description": "Công trình biểu tượng của phố núi khởi công năm 1895, kiến trúc Gothic hình thập giá với tháp chuông, vòm cuốn thanh thoát. Đối diện là quảng trường - nơi diễn ra chợ tình tối thứ Bảy.",
    "best_season": "Quanh năm",
    "rating": 4.7
  },
  {
    "id": "poi_003",
    "name": "Núi Hàm Rồng",
    "category": "diem_ngam_canh",
    "commune": "Trung tâm Sa Pa",
    "lat": 22.335,
    "lng": 103.8475,
    "address": "Sau nhà thờ đá, trung tâm thị xã Sa Pa, Lào Cai",
    "description": "Điểm leo núi dã ngoại ngay trung tâm, chỗ thấp nhất 1.450m, đỉnh cao hơn 1.800m; ngắm toàn cảnh thung lũng Mường Hoa, Tả Van, Cát Cát. Vé 70.000đ người lớn, 30.000đ trẻ em.",
    "best_season": "Quanh năm",
    "rating": 4.5
  },
  {
    "id": "poi_004",
    "name": "Bản Cát Cát",
    "category": "diem_ngam_canh",
    "commune": "Hoàng Liên",
    "lat": 22.3231,
    "lng": 103.834,
    "address": "Cách trung tâm Sa Pa 2km, thị xã Sa Pa, Lào Cai",
    "description": "Bản làng người Mông yên bình với nghề dệt vải, chạm bạc; qua cầu Si tới nơi hội tụ ba dòng suối Tiên Sa, suối Vàng, suối Bạc. Vé vào bản 50.000đ.",
    "best_season": "Quanh năm",
    "rating": 4.6
  },
  {
    "id": "poi_005",
    "name": "Bản Tả Van",
    "category": "diem_ngam_canh",
    "commune": "Tả Van",
    "lat": 22.2905,
    "lng": 103.901,
    "address": "Xã Tả Van, thị xã Sa Pa, Lào Cai (cách trung tâm 10km)",
    "description": "Bản làng giữa thung lũng Mường Hoa với ruộng bậc thang trải rộng, nhiều dân tộc Mông, Dao, Giáy sinh sống. Vé vào bản 70.000đ (chung tuyến Lao Chải - Tả Van).",
    "best_season": "Thg9-Thg11",
    "rating": 4.8
  },
  {
    "id": "poi_006",
    "name": "Bản Lao Chải",
    "category": "diem_ngam_canh",
    "commune": "Hoàng Liên",
    "lat": 22.3057,
    "lng": 103.876,
    "address": "Xã Lao Chải (Hoàng Liên), thị xã Sa Pa, Lào Cai",
    "description": "Cửa ngõ vào thung lũng Mường Hoa, đường nhỏ hai bên phủ màu xanh của ruộng bậc thang lúa và ngô; cuối hè lúa chín nhuộm vàng cả vùng sơn cước.",
    "best_season": "Thg9-Thg11",
    "rating": 4.7
  },
  {
    "id": "poi_007",
    "name": "Thung lũng Mường Hoa",
    "category": "diem_ngam_canh",
    "commune": "Hầu Thào",
    "lat": 22.298,
    "lng": 103.889,
    "address": "Dọc suối Mường Hoa, thị xã Sa Pa, Lào Cai",
    "description": "Thung lũng ruộng bậc thang đẹp nhất Sa Pa chạy dọc suối Mường Hoa qua Lao Chải, Tả Van, Hầu Thào; điểm ngắm biển mây và mùa lúa chín nổi tiếng.",
    "best_season": "Thg9-Thg11",
    "rating": 4.9
  },
  {
    "id": "poi_008",
    "name": "Bãi đá cổ Sa Pa",
    "category": "diem_ngam_canh",
    "commune": "Hầu Thào",
    "lat": 22.2953,
    "lng": 103.893,
    "address": "Thung lũng Mường Hoa, xã Hầu Thào, thị xã Sa Pa, Lào Cai",
    "description": "Di tích quốc gia với gần 200 tảng đá khắc hoa văn, hình người và ký tự cổ bí ẩn nằm rải rác giữa ruộng bậc thang thung lũng Mường Hoa.",
    "best_season": "Quanh năm",
    "rating": 4.3
  },
  {
    "id": "poi_009",
    "name": "Bản Tả Phìn",
    "category": "diem_ngam_canh",
    "commune": "Tả Phìn",
    "lat": 22.3955,
    "lng": 103.8415,
    "address": "Xã Tả Phìn, thị xã Sa Pa, Lào Cai (cách trung tâm 12km)",
    "description": "Bản của người Dao đỏ nổi tiếng với nghề thêu thổ cẩm và tắm lá thuốc; có hang động Tả Phìn và tu viện cổ bỏ hoang phủ rêu phong.",
    "best_season": "Quanh năm",
    "rating": 4.5
  },
  {
    "id": "poi_010",
    "name": "Bản Sín Chải",
    "category": "diem_ngam_canh",
    "commune": "Hoàng Liên",
    "lat": 22.345,
    "lng": 103.818,
    "address": "Xã San Sả Hồ (Hoàng Liên), thị xã Sa Pa, Lào Cai",
    "description": "Bản người Mông đen còn giữ nét hoang sơ, ít khách du lịch, nằm dưới chân dãy Hoàng Liên Sơn giữa nương thảo quả và ruộng bậc thang.",
    "best_season": "Quanh năm",
    "rating": 4.4
  },
  {
    "id": "poi_011",
    "name": "Hồ Séo Mý Tỷ",
    "category": "diem_ngam_canh",
    "commune": "Tả Van",
    "lat": 22.256,
    "lng": 103.905,
    "address": "Xã Tả Van, thị xã Sa Pa, Lào Cai (cách trung tâm 20km)",
    "description": "Hồ nhân tạo cao nhất Việt Nam hình thành từ đập thủy điện Séo Mý Tỷ, như dải lụa bên sườn Hoàng Liên Sơn; đường vào 20km nhiều sỏi đá, thử thách tay lái. Có thể theo thuyền ngư dân ngắm hồ, tìm hiểu nghề nuôi cá hồi.",
    "best_season": "Thg3-Thg11",
    "rating": 4.6
  },
  {
    "id": "poi_012",
    "name": "Cổng Trời Ô Quy Hồ",
    "category": "diem_ngam_canh",
    "commune": "Ô Quy Hồ",
    "lat": 22.352,
    "lng": 103.762,
    "address": "Đỉnh đèo Ô Quy Hồ, Quốc lộ 4D, cách trung tâm Sa Pa 15km",
    "description": "Điểm cao nhất của đèo Ô Quy Hồ, ngắm toàn cảnh thung lũng rộng lớn và các cung đường quanh co. Vé 80.000đ kèm một đồ uống.",
    "best_season": "Quanh năm",
    "rating": 4.5
  },
  {
    "id": "poi_013",
    "name": "Đèo Ô Quy Hồ",
    "category": "diem_ngam_canh",
    "commune": "Ô Quy Hồ",
    "lat": 22.3475,
    "lng": 103.7663,
    "address": "Quốc lộ 4D nối Lào Cai - Lai Châu",
    "description": "\"Vua của những cung đèo\" dài khoảng 50km, một bên thung lũng sâu, một bên vách núi cheo leo; đẹp nhất lúc hoàng hôn 17h - 17h30. Nên đi xe số, mang áo khoác dày.",
    "best_season": "Quanh năm",
    "rating": 4.8
  },
  {
    "id": "poi_014",
    "name": "Thác Bạc",
    "category": "diem_ngam_canh",
    "commune": "Ô Quy Hồ",
    "lat": 22.3608,
    "lng": 103.7773,
    "address": "Trục đèo Ô Quy Hồ, cách đỉnh đèo 3km, thị xã Sa Pa",
    "description": "Thác nước lớn đổ từ độ cao hơn 200m, có bậc thang lên đỉnh thác - càng lên càng lạnh và nước chảy mạnh, chú ý trơn trượt. Vé 20.000đ.",
    "best_season": "Thg5-Thg10",
    "rating": 4.3
  },
  {
    "id": "poi_015",
    "name": "Thác Tình Yêu",
    "category": "diem_ngam_canh",
    "commune": "Ô Quy Hồ",
    "lat": 22.364,
    "lng": 103.773,
    "address": "Gần Trạm Tôn, trục đèo Ô Quy Hồ, thị xã Sa Pa",
    "description": "Từ cổng đi bộ 1,5km xuyên rừng thơ mộng tới thác, gắn với truyền thuyết nàng tiên thứ bảy; là điểm xuất phát cung trekking Fansipan. Vé 75.000đ.",
    "best_season": "Thg3-Thg10",
    "rating": 4.4
  },
  {
    "id": "poi_016",
    "name": "Swing Sa Pa",
    "category": "diem_ngam_canh",
    "commune": "Trung tâm Sa Pa",
    "lat": 22.3287,
    "lng": 103.8365,
    "address": "87 Nguyễn Chí Thanh, thị xã Sa Pa (cách nhà thờ đá 2km hướng cáp treo)",
    "description": "Tổ hợp check-in với tượng chàng và nàng, bàn tay đá khổng lồ, nấc thang lên thiên đường, xích đu... Vé vào cửa 80.000đ, thuê trang phục chụp hình 50.000đ/bộ.",
    "best_season": "Quanh năm",
    "rating": 4.2
  },
  {
    "id": "poi_017",
    "name": "Moana Sapa CheckIn",
    "category": "diem_ngam_canh",
    "commune": "Trung tâm Sa Pa",
    "lat": 22.328,
    "lng": 103.833,
    "address": "Đường Điện Biên Phủ đi Cát Cát, thị xã Sa Pa, Lào Cai",
    "description": "Điểm chụp ảnh nổi tiếng với cổng trời, bàn tay Phật, hồ vô cực nhìn ra dãy Hoàng Liên Sơn - mô phỏng các góc check-in kiểu Bali.",
    "best_season": "Quanh năm",
    "rating": 4.1
  },
  {
    "id": "poi_018",
    "name": "Quảng trường và hồ Sa Pa",
    "category": "diem_ngam_canh",
    "commune": "Trung tâm Sa Pa",
    "lat": 22.336,
    "lng": 103.8445,
    "address": "Trung tâm thị xã Sa Pa, Lào Cai",
    "description": "Trái tim của thị xã: quảng trường trước nhà thờ đá nơi diễn ra các hoạt động văn hóa, chợ tình tối thứ Bảy; hồ Sa Pa thơ mộng để đi dạo buổi tối.",
    "best_season": "Quanh năm",
    "rating": 4.4
  },
  {
    "id": "poi_019",
    "name": "Chợ Sa Pa và chợ đêm",
    "category": "diem_ngam_canh",
    "commune": "Trung tâm Sa Pa",
    "lat": 22.3405,
    "lng": 103.8435,
    "address": "Trung tâm thị xã Sa Pa, Lào Cai",
    "description": "Nơi mua thổ cẩm, hàng thủ công, sản vật địa phương và thưởng thức đồ nướng Sa Pa (20.000 - 100.000đ mỗi loại) trong tiết trời se lạnh buổi tối.",
    "best_season": "Quanh năm",
    "rating": 4.3
  },
  {
    "id": "poi_020",
    "name": "Vườn quốc gia Hoàng Liên (Trạm Tôn)",
    "category": "diem_ngam_canh",
    "commune": "Ô Quy Hồ",
    "lat": 22.348,
    "lng": 103.774,
    "address": "Trạm Tôn, Quốc lộ 4D, thị xã Sa Pa, Lào Cai",
    "description": "Vườn di sản ASEAN với hệ động thực vật phong phú của dãy Hoàng Liên Sơn; điểm xuất phát các cung trekking Fansipan truyền thống dành cho người thích chinh phục bằng đường bộ.",
    "best_season": "Thg9-Thg4",
    "rating": 4.6
  },
  {
    "id": "poi_021",
    "name": "Hôtel de la Coupole - MGallery",
    "category": "homestay",
    "commune": "Trung tâm Sa Pa",
    "lat": 22.333,
    "lng": 103.8405,
    "address": "1 Hoàng Liên, trung tâm thị xã Sa Pa, Lào Cai",
    "description": "Khách sạn 5 sao biểu tượng do Bill Bensley thiết kế, ngay cạnh ga tàu hỏa leo núi đi cáp treo Fansipan.",
    "price_range": "3.500.000 - 8.000.000đ/đêm",
    "best_season": "Quanh năm",
    "rating": 4.9
  },
  {
    "id": "poi_022",
    "name": "Silk Path Grand Resort & Spa",
    "category": "homestay",
    "commune": "Trung tâm Sa Pa",
    "lat": 22.3395,
    "lng": 103.835,
    "address": "Đồi Quan 6, phường Sa Pa, thị xã Sa Pa, Lào Cai",
    "description": "Resort 5 sao trên đồi với kiến trúc châu Âu cổ điển, bể bơi trong nhà và spa, view nhìn xuống thung lũng.",
    "price_range": "2.500.000 - 6.000.000đ/đêm",
    "best_season": "Quanh năm",
    "rating": 4.8
  },
  {
    "id": "poi_023",
    "name": "Topas Ecolodge",
    "category": "homestay",
    "commune": "Thanh Kim",
    "lat": 22.2445,
    "lng": 103.931,
    "address": "Xã Thanh Kim (Thanh Bình), thị xã Sa Pa, cách trung tâm 18km",
    "description": "Khu nghỉ dưỡng sinh thái biệt lập nổi tiếng với bể bơi vô cực nhìn ra núi, từng được National Geographic vinh danh trong các lodge độc đáo thế giới.",
    "price_range": "3.000.000 - 7.000.000đ/đêm",
    "best_season": "Quanh năm",
    "rating": 4.8
  },
  {
    "id": "poi_024",
    "name": "Sapa Jade Hill Resort & Spa",
    "category": "homestay",
    "commune": "Trung tâm Sa Pa",
    "lat": 22.3235,
    "lng": 103.8475,
    "address": "Đường Mường Hoa, thị xã Sa Pa, Lào Cai",
    "description": "Quần thể biệt thự nghỉ dưỡng trên sườn đồi hướng thung lũng Mường Hoa, phong cách bản địa kết hợp hiện đại.",
    "price_range": "1.500.000 - 4.000.000đ/đêm",
    "best_season": "Quanh năm",
    "rating": 4.6
  },
  {
    "id": "poi_025",
    "name": "Pao's Sapa Leisure Hotel",
    "category": "homestay",
    "commune": "Trung tâm Sa Pa",
    "lat": 22.3268,
    "lng": 103.8452,
    "address": "Đường Mường Hoa, thị xã Sa Pa, Lào Cai",
    "description": "Khách sạn 5 sao với hầu hết các phòng có ban công hướng thẳng ra thung lũng Mường Hoa.",
    "price_range": "1.800.000 - 4.500.000đ/đêm",
    "best_season": "Quanh năm",
    "rating": 4.7
  },
  {
    "id": "poi_026",
    "name": "BB Hotel Sapa",
    "category": "homestay",
    "commune": "Trung tâm Sa Pa",
    "lat": 22.3352,
    "lng": 103.8432,
    "address": "Đường Cầu Mây, trung tâm thị xã Sa Pa, Lào Cai",
    "description": "Khách sạn 4 sao ngay phố Cầu Mây sầm uất, đi bộ 2 phút ra nhà thờ đá và quảng trường.",
    "price_range": "1.200.000 - 2.500.000đ/đêm",
    "best_season": "Quanh năm",
    "rating": 4.5
  },
  {
    "id": "poi_027",
    "name": "Amazing Hotel Sapa",
    "category": "homestay",
    "commune": "Trung tâm Sa Pa",
    "lat": 22.3372,
    "lng": 103.8462,
    "address": "Đường Đông Lợi, thị xã Sa Pa, Lào Cai",
    "description": "Khách sạn 4 sao có bể bơi bốn mùa và sân thượng ngắm toàn cảnh thị xã lẫn dãy Hoàng Liên Sơn.",
    "price_range": "1.200.000 - 3.000.000đ/đêm",
    "best_season": "Quanh năm",
    "rating": 4.5
  },
  {
    "id": "poi_028",
    "name": "Bamboo Sapa Hotel",
    "category": "homestay",
    "commune": "Trung tâm Sa Pa",
    "lat": 22.3312,
    "lng": 103.8452,
    "address": "18 Mường Hoa, thị xã Sa Pa, Lào Cai",
    "description": "Khách sạn lâu năm trên đường Mường Hoa, phòng view thung lũng, nhà hàng phục vụ món Âu - Á.",
    "price_range": "800.000 - 1.800.000đ/đêm",
    "best_season": "Quanh năm",
    "rating": 4.3
  },
  {
    "id": "poi_029",
    "name": "Chau Long Sapa Hotel",
    "category": "homestay",
    "commune": "Trung tâm Sa Pa",
    "lat": 22.3348,
    "lng": 103.8458,
    "address": "24 Đồng Lợi, thị xã Sa Pa, Lào Cai",
    "description": "Khách sạn kiến trúc lâu đài châu Âu quen thuộc của Sa Pa, phòng hướng thung lũng Mường Hoa.",
    "price_range": "900.000 - 2.200.000đ/đêm",
    "best_season": "Quanh năm",
    "rating": 4.4
  },
  {
    "id": "poi_030",
    "name": "U Sapa Hotel",
    "category": "homestay",
    "commune": "Trung tâm Sa Pa",
    "lat": 22.3368,
    "lng": 103.8428,
    "address": "8 Cầu Mây, thị xã Sa Pa, Lào Cai",
    "description": "Khách sạn boutique phong cách Đông Dương ngay trung tâm, thiết kế ấm cúng với lò sưởi và nội thất gỗ.",
    "price_range": "1.500.000 - 3.000.000đ/đêm",
    "best_season": "Quanh năm",
    "rating": 4.6
  },
  {
    "id": "poi_031",
    "name": "Pistachio Hotel Sapa",
    "category": "homestay",
    "commune": "Trung tâm Sa Pa",
    "lat": 22.3412,
    "lng": 103.8385,
    "address": "Đường Thạch Sơn, thị xã Sa Pa, Lào Cai",
    "description": "Khách sạn 4 sao có bể bơi nước nóng trong nhà, phòng gia đình rộng, gần chợ Sa Pa.",
    "price_range": "1.000.000 - 2.500.000đ/đêm",
    "best_season": "Quanh năm",
    "rating": 4.4
  },
  {
    "id": "poi_032",
    "name": "KK Sapa Hotel",
    "category": "homestay",
    "commune": "Trung tâm Sa Pa",
    "lat": 22.3338,
    "lng": 103.8418,
    "address": "Đường Ngũ Chỉ Sơn, thị xã Sa Pa, Lào Cai",
    "description": "Khách sạn 5 sao phong cách hiện đại ngay trung tâm, có nhà hàng tầng cao ngắm núi Hàm Rồng.",
    "price_range": "1.500.000 - 3.500.000đ/đêm",
    "best_season": "Quanh năm",
    "rating": 4.5
  },
  {
    "id": "poi_033",
    "name": "Sapa Charm Hotel",
    "category": "homestay",
    "commune": "Trung tâm Sa Pa",
    "lat": 22.339,
    "lng": 103.844,
    "address": "Đường Thạch Sơn, thị xã Sa Pa, Lào Cai",
    "description": "Khách sạn 4 sao gần chợ và bến xe, phòng Deluxe có cửa kính lớn nhìn ra thung lũng.",
    "price_range": "800.000 - 1.800.000đ/đêm",
    "best_season": "Quanh năm",
    "rating": 4.3
  },
  {
    "id": "poi_034",
    "name": "Sunny Mountain Hotel",
    "category": "homestay",
    "commune": "Trung tâm Sa Pa",
    "lat": 22.3325,
    "lng": 103.8435,
    "address": "10 Mường Hoa, thị xã Sa Pa, Lào Cai",
    "description": "Khách sạn 3 sao vị trí thuận tiện trên đường Mường Hoa, giá hợp lý, nhân viên thân thiện.",
    "price_range": "700.000 - 1.500.000đ/đêm",
    "best_season": "Quanh năm",
    "rating": 4.2
  },
  {
    "id": "poi_035",
    "name": "Freesia Hotel Sapa",
    "category": "homestay",
    "commune": "Trung tâm Sa Pa",
    "lat": 22.3355,
    "lng": 103.841,
    "address": "Đường Xuân Viên, thị xã Sa Pa, Lào Cai",
    "description": "Khách sạn 4 sao yên tĩnh trên đường Xuân Viên, gần khu phố ẩm thực lẩu cá hồi.",
    "price_range": "600.000 - 1.400.000đ/đêm",
    "best_season": "Quanh năm",
    "rating": 4.3
  },
  {
    "id": "poi_036",
    "name": "Sapa Horizon Hotel",
    "category": "homestay",
    "commune": "Trung tâm Sa Pa",
    "lat": 22.334,
    "lng": 103.84,
    "address": "Đường Phạm Xuân Huân, thị xã Sa Pa, Lào Cai",
    "description": "Khách sạn 3 sao được khách quốc tế ưa chuộng, hỗ trợ đặt tour trekking bản làng uy tín.",
    "price_range": "600.000 - 1.300.000đ/đêm",
    "best_season": "Quanh năm",
    "rating": 4.3
  },
  {
    "id": "poi_037",
    "name": "Lady Hill Sapa Resort",
    "category": "homestay",
    "commune": "Trung tâm Sa Pa",
    "lat": 22.3415,
    "lng": 103.833,
    "address": "Đồi Con Gái, thị xã Sa Pa, Lào Cai",
    "description": "Resort trên đồi hướng ra dãy Hoàng Liên Sơn với vườn hoa lớn, bể bơi bốn mùa và khu vui chơi trẻ em.",
    "price_range": "1.500.000 - 3.500.000đ/đêm",
    "best_season": "Quanh năm",
    "rating": 4.5
  },
  {
    "id": "poi_038",
    "name": "Aira Boutique Sapa Hotel & Spa",
    "category": "homestay",
    "commune": "Trung tâm Sa Pa",
    "lat": 22.3295,
    "lng": 103.8465,
    "address": "Đường Mường Hoa, thị xã Sa Pa, Lào Cai",
    "description": "Khách sạn boutique sang trọng phía cuối đường Mường Hoa, ban công gỗ nhìn trọn thung lũng.",
    "price_range": "1.800.000 - 4.000.000đ/đêm",
    "best_season": "Quanh năm",
    "rating": 4.6
  },
  {
    "id": "poi_039",
    "name": "Sapa Relax Hotel & Spa",
    "category": "homestay",
    "commune": "Trung tâm Sa Pa",
    "lat": 22.336,
    "lng": 103.8395,
    "address": "Đường Đông Lợi, thị xã Sa Pa, Lào Cai",
    "description": "Khách sạn 4 sao có spa trị liệu và bể sục, phù hợp nghỉ dưỡng thư giãn sau ngày trekking.",
    "price_range": "900.000 - 2.000.000đ/đêm",
    "best_season": "Quanh năm",
    "rating": 4.4
  },
  {
    "id": "poi_040",
    "name": "Sapa Green Hotel",
    "category": "homestay",
    "commune": "Trung tâm Sa Pa",
    "lat": 22.333,
    "lng": 103.839,
    "address": "Đường Điện Biên Phủ, thị xã Sa Pa, Lào Cai",
    "description": "Khách sạn tầm trung sạch sẽ trên trục Điện Biên Phủ, gần các quán đặc sản Mị Nướng, phở cốn sủi ông Há.",
    "price_range": "500.000 - 1.200.000đ/đêm",
    "best_season": "Quanh năm",
    "rating": 4.1
  },
  {
    "id": "poi_041",
    "name": "The Mong Village Resort & Spa",
    "category": "homestay",
    "commune": "Hầu Thào",
    "lat": 22.318,
    "lng": 103.856,
    "address": "Đường xuống thung lũng Mường Hoa, thị xã Sa Pa, Lào Cai",
    "description": "Khu nghỉ mô phỏng kiến trúc làng người Mông với tường đá và mái gỗ, biệt lập giữa sườn đồi.",
    "price_range": "1.200.000 - 3.000.000đ/đêm",
    "best_season": "Quanh năm",
    "rating": 4.4
  },
  {
    "id": "poi_042",
    "name": "Sapa Catcat Hills Resort & Spa",
    "category": "homestay",
    "commune": "Hoàng Liên",
    "lat": 22.3255,
    "lng": 103.8355,
    "address": "Đường Fansipan đi bản Cát Cát, thị xã Sa Pa, Lào Cai",
    "description": "Resort trên đồi nhìn xuống bản Cát Cát và thung lũng, thuận tiện vừa nghỉ dưỡng vừa tham quan bản.",
    "price_range": "1.000.000 - 2.500.000đ/đêm",
    "best_season": "Quanh năm",
    "rating": 4.4
  },
  {
    "id": "poi_043",
    "name": "Ville De Mont Mountain Resort",
    "category": "homestay",
    "commune": "Trung tâm Sa Pa",
    "lat": 22.342,
    "lng": 103.836,
    "address": "Đồi Violet, thị xã Sa Pa, Lào Cai",
    "description": "Resort 5 sao mới với các căn villa kính panorama hướng thẳng dãy Hoàng Liên Sơn.",
    "price_range": "2.000.000 - 5.000.000đ/đêm",
    "best_season": "Quanh năm",
    "rating": 4.6
  },
  {
    "id": "poi_044",
    "name": "Sapa Clay House - Mountain Retreat",
    "category": "homestay",
    "commune": "Tả Van",
    "lat": 22.293,
    "lng": 103.896,
    "address": "Bản Tả Van, thị xã Sa Pa, Lào Cai",
    "description": "Nhà đất truyền thống cải tạo thành retreat ấm cúng giữa ruộng bậc thang Tả Van, có bể bơi nhỏ hướng thung lũng.",
    "price_range": "1.500.000 - 3.000.000đ/đêm",
    "best_season": "Thg9-Thg11",
    "rating": 4.6
  },
  {
    "id": "poi_045",
    "name": "Sapa Diamond Hotel",
    "category": "homestay",
    "commune": "Trung tâm Sa Pa",
    "lat": 22.3375,
    "lng": 103.8415,
    "address": "Đường Cầu Mây, thị xã Sa Pa, Lào Cai",
    "description": "Khách sạn 3 sao vị trí trung tâm, tầng cao nhìn ra hồ Sa Pa và núi Hàm Rồng.",
    "price_range": "800.000 - 1.600.000đ/đêm",
    "best_season": "Quanh năm",
    "rating": 4.2
  },
  {
    "id": "poi_046",
    "name": "Eco Palms House",
    "category": "homestay",
    "commune": "Hoàng Liên",
    "lat": 22.301,
    "lng": 103.883,
    "address": "Bản Lao Chải, thung lũng Mường Hoa, thị xã Sa Pa",
    "description": "Bungalow gỗ giữa ruộng bậc thang Lao Chải - Tả Van, một trong những homestay được yêu thích nhất Sa Pa theo VnExpress.",
    "price_range": "800.000 - 1.800.000đ/đêm",
    "best_season": "Thg9-Thg11",
    "rating": 4.7
  },
  {
    "id": "poi_047",
    "name": "Heaven Sapa Homestay",
    "category": "homestay",
    "commune": "Hoàng Liên",
    "lat": 22.307,
    "lng": 103.875,
    "address": "Bản Lao Chải, thị xã Sa Pa, Lào Cai",
    "description": "Homestay view ruộng bậc thang được nhắc tên trong cẩm nang VnExpress, không gian thanh bình giữa núi rừng.",
    "price_range": "300.000 - 800.000đ/đêm",
    "best_season": "Thg9-Thg11",
    "rating": 4.6
  },
  {
    "id": "poi_048",
    "name": "Viettrekking Homestay & Cafe",
    "category": "homestay",
    "commune": "Trung tâm Sa Pa",
    "lat": 22.332,
    "lng": 103.849,
    "address": "Đường Hoàng Liên, thị xã Sa Pa, Lào Cai",
    "description": "Homestay kết hợp quán cà phê view thung lũng nổi tiếng trên đường Hoàng Liên, được VnExpress gợi ý.",
    "price_range": "400.000 - 900.000đ/đêm",
    "best_season": "Quanh năm",
    "rating": 4.6
  },
  {
    "id": "poi_049",
    "name": "Phơri's House",
    "category": "homestay",
    "commune": "Tả Van",
    "lat": 22.2915,
    "lng": 103.9005,
    "address": "Bản Tả Van, thị xã Sa Pa, Lào Cai",
    "description": "Căn nhà gỗ xinh xắn giữa Tả Van trong danh sách homestay được yêu thích của VnExpress, hợp cho cặp đôi và nhóm nhỏ.",
    "price_range": "500.000 - 1.200.000đ/đêm",
    "best_season": "Thg9-Thg11",
    "rating": 4.7
  },
  {
    "id": "poi_050",
    "name": "Sapa Heavenly Homestay",
    "category": "homestay",
    "commune": "Tả Van",
    "lat": 22.2925,
    "lng": 103.8985,
    "address": "Bản Tả Van, thị xã Sa Pa, Lào Cai",
    "description": "Homestay giá bình dân trong bản Tả Van, được nhắc tên trong cẩm nang VnExpress, có phòng dorm cho khách đi bụi.",
    "price_range": "150.000 - 600.000đ/đêm",
    "best_season": "Thg9-Thg11",
    "rating": 4.5
  },
  {
    "id": "poi_051",
    "name": "Rock Garden Homestay",
    "category": "homestay",
    "commune": "Hầu Thào",
    "lat": 22.3005,
    "lng": 103.8905,
    "address": "Xã Hầu Thào, thung lũng Mường Hoa, thị xã Sa Pa",
    "description": "Homestay vườn đá nhìn xuống thung lũng Mường Hoa và bãi đá cổ, nằm trong danh sách gợi ý của VnExpress.",
    "price_range": "400.000 - 1.000.000đ/đêm",
    "best_season": "Thg9-Thg11",
    "rating": 4.5
  },
  {
    "id": "poi_052",
    "name": "Coóng Homestay & Cafe",
    "category": "homestay",
    "commune": "Hoàng Liên",
    "lat": 22.327,
    "lng": 103.8355,
    "address": "Đường đi bản Cát Cát, thị xã Sa Pa, Lào Cai",
    "description": "Homestay kèm Coóng Cafe view núi nổi tiếng trên đường xuống Cát Cát, được VnExpress gợi ý cả mục lưu trú lẫn cà phê.",
    "price_range": "400.000 - 1.000.000đ/đêm",
    "best_season": "Quanh năm",
    "rating": 4.6
  },
  {
    "id": "poi_053",
    "name": "Vườn Mây Homestay",
    "category": "homestay",
    "commune": "Tả Van",
    "lat": 22.296,
    "lng": 103.894,
    "address": "Thung lũng Mường Hoa, thị xã Sa Pa, Lào Cai",
    "description": "Homestay trong danh sách yêu thích của VnExpress, sáng sớm có thể ngắm biển mây tràn qua thung lũng.",
    "price_range": "500.000 - 1.100.000đ/đêm",
    "best_season": "Thg10-Thg4",
    "rating": 4.6
  },
  {
    "id": "poi_054",
    "name": "Mộng Homestay",
    "category": "homestay",
    "commune": "Hầu Thào",
    "lat": 22.2985,
    "lng": 103.8915,
    "address": "Thung lũng Mường Hoa, thị xã Sa Pa, Lào Cai",
    "description": "Homestay nhỏ được VnExpress nhắc tên, các phòng gỗ hướng thẳng ruộng bậc thang Mường Hoa.",
    "price_range": "500.000 - 1.200.000đ/đêm",
    "best_season": "Thg9-Thg11",
    "rating": 4.5
  },
  {
    "id": "poi_055",
    "name": "Lá Dao Spa & Homestay",
    "category": "homestay",
    "commune": "Tả Van",
    "lat": 22.29,
    "lng": 103.903,
    "address": "Bản Tả Van, thị xã Sa Pa, Lào Cai",
    "description": "Homestay kết hợp spa tắm lá thuốc người Dao đỏ giữa bản Tả Van, view suối Mường Hoa.",
    "price_range": "600.000 - 1.400.000đ/đêm",
    "best_season": "Quanh năm",
    "rating": 4.7
  },
  {
    "id": "poi_056",
    "name": "The Haven Sapa Camp Site",
    "category": "homestay",
    "commune": "Hầu Thào",
    "lat": 22.313,
    "lng": 103.865,
    "address": "Sườn thung lũng Mường Hoa, thị xã Sa Pa, Lào Cai",
    "description": "Khu cắm trại kết hợp bungalow trên sườn thung lũng, chuyên đón bình minh và biển mây Mường Hoa.",
    "price_range": "300.000 - 700.000đ/đêm",
    "best_season": "Thg10-Thg4",
    "rating": 4.4
  },
  {
    "id": "poi_057",
    "name": "Nam Cang Riverside Lodge",
    "category": "homestay",
    "commune": "Nam Cang",
    "lat": 22.215,
    "lng": 103.955,
    "address": "Bản Nam Cang, thị xã Sa Pa (cách trung tâm khoảng 28km)",
    "description": "Lodge gỗ bên suối trong bản người Dao đỏ hẻo lánh, dành cho khách muốn trải nghiệm Sa Pa nguyên sơ nhất.",
    "price_range": "1.500.000 - 3.000.000đ/đêm",
    "best_season": "Thg3-Thg11",
    "rating": 4.7
  },
  {
    "id": "poi_058",
    "name": "Luckydaisy Buffalo House",
    "category": "homestay",
    "commune": "Hoàng Liên",
    "lat": 22.3045,
    "lng": 103.8775,
    "address": "Bản Lao Chải, thị xã Sa Pa, Lào Cai",
    "description": "Nhà truyền thống giữa ruộng lúa Lao Chải, trải nghiệm cày ruộng cùng trâu và nấu ăn với gia đình bản địa.",
    "price_range": "400.000 - 900.000đ/đêm",
    "best_season": "Thg9-Thg11",
    "rating": 4.6
  },
  {
    "id": "poi_059",
    "name": "Tavan Ecologic Homestay",
    "category": "homestay",
    "commune": "Tả Van",
    "lat": 22.2918,
    "lng": 103.902,
    "address": "Bản Tả Van, thị xã Sa Pa, Lào Cai",
    "description": "Nhà sàn người Giáy chạy dọc suối Mường Hoa, có phòng dorm giá rẻ và bữa tối gia đình ấm cúng.",
    "price_range": "200.000 - 600.000đ/đêm",
    "best_season": "Thg9-Thg11",
    "rating": 4.5
  },
  {
    "id": "poi_060",
    "name": "Po Homestay Tả Van",
    "category": "homestay",
    "commune": "Tả Van",
    "lat": 22.2895,
    "lng": 103.904,
    "address": "Bản Tả Van, thị xã Sa Pa, Lào Cai",
    "description": "Homestay của gia đình người Giáy hiếu khách, ban công tre nhìn ra ruộng bậc thang và suối.",
    "price_range": "300.000 - 700.000đ/đêm",
    "best_season": "Thg9-Thg11",
    "rating": 4.6
  },
  {
    "id": "poi_061",
    "name": "Little View Homestay Sapa",
    "category": "homestay",
    "commune": "Trung tâm Sa Pa",
    "lat": 22.3305,
    "lng": 103.8475,
    "address": "Đường Mường Hoa, thị xã Sa Pa, Lào Cai",
    "description": "Homestay nhỏ gần trung tâm nhưng vẫn có view thung lũng, giá mềm, phù hợp các bạn trẻ.",
    "price_range": "300.000 - 700.000đ/đêm",
    "best_season": "Quanh năm",
    "rating": 4.3
  },
  {
    "id": "poi_062",
    "name": "Sapa Farmstay",
    "category": "homestay",
    "commune": "Hầu Thào",
    "lat": 22.32,
    "lng": 103.86,
    "address": "Rìa thung lũng Mường Hoa, thị xã Sa Pa, Lào Cai",
    "description": "Mô hình farmstay trải nghiệm trồng rau, hái mận, cho gia đình có trẻ nhỏ muốn gần gũi thiên nhiên.",
    "price_range": "400.000 - 900.000đ/đêm",
    "best_season": "Thg3-Thg10",
    "rating": 4.4
  },
  {
    "id": "poi_063",
    "name": "Cat Cat Garden Homestay",
    "category": "homestay",
    "commune": "Hoàng Liên",
    "lat": 22.3245,
    "lng": 103.8345,
    "address": "Gần cổng bản Cát Cát, thị xã Sa Pa, Lào Cai",
    "description": "Homestay vườn ngay lối vào bản Cát Cát, tiện tham quan bản sáng sớm trước giờ đông khách.",
    "price_range": "300.000 - 800.000đ/đêm",
    "best_season": "Quanh năm",
    "rating": 4.3
  },
  {
    "id": "poi_064",
    "name": "Tả Phìn Homestay (bản Dao đỏ)",
    "category": "homestay",
    "commune": "Tả Phìn",
    "lat": 22.395,
    "lng": 103.842,
    "address": "Bản Tả Phìn, thị xã Sa Pa, Lào Cai",
    "description": "Cụm homestay của người Dao đỏ tại Tả Phìn, trải nghiệm tắm lá thuốc truyền thống và học thêu thổ cẩm.",
    "price_range": "150.000 - 500.000đ/đêm",
    "best_season": "Quanh năm",
    "rating": 4.5
  },
  {
    "id": "poi_065",
    "name": "Sin Chai Eco Homestay",
    "category": "homestay",
    "commune": "Hoàng Liên",
    "lat": 22.3445,
    "lng": 103.8185,
    "address": "Bản Sín Chải, thị xã Sa Pa, Lào Cai",
    "description": "Homestay sinh thái trong bản Mông đen ít khách du lịch, thích hợp cho ai muốn tránh xô bồ.",
    "price_range": "200.000 - 600.000đ/đêm",
    "best_season": "Quanh năm",
    "rating": 4.4
  },
  {
    "id": "poi_066",
    "name": "Sapa Odyssey Hostel",
    "category": "homestay",
    "commune": "Trung tâm Sa Pa",
    "lat": 22.338,
    "lng": 103.839,
    "address": "Đường Thạch Sơn, thị xã Sa Pa, Lào Cai",
    "description": "Hostel cho khách ba lô với phòng dorm giường tầng sạch sẽ, khu bếp chung và góc phòng khách ngắm núi.",
    "price_range": "120.000 - 400.000đ/đêm",
    "best_season": "Quanh năm",
    "rating": 4.3
  },
  {
    "id": "poi_067",
    "name": "Go Sapa Hostel",
    "category": "homestay",
    "commune": "Trung tâm Sa Pa",
    "lat": 22.333,
    "lng": 103.837,
    "address": "Đường Fansipan, thị xã Sa Pa, Lào Cai",
    "description": "Hostel giá rẻ trên đường Fansipan, dorm từ khoảng 100.000đ/người đúng mặt bằng giá VnExpress nêu, có tổ chức tour ghép trekking.",
    "price_range": "100.000 - 350.000đ/đêm",
    "best_season": "Quanh năm",
    "rating": 4.2
  },
  {
    "id": "poi_068",
    "name": "Mường Hoa View Bungalow",
    "category": "homestay",
    "commune": "Hầu Thào",
    "lat": 22.299,
    "lng": 103.887,
    "address": "Thung lũng Mường Hoa, thị xã Sa Pa, Lào Cai",
    "description": "Cụm bungalow gỗ độc lập giữa thung lũng, phòng đôi dạng bungalow từ khoảng 500.000đ đúng mặt bằng giá VnExpress nêu.",
    "price_range": "500.000 - 1.200.000đ/đêm",
    "best_season": "Thg9-Thg11",
    "rating": 4.5
  },
  {
    "id": "poi_069",
    "name": "Tả Van Riverside Homestay",
    "category": "homestay",
    "commune": "Tả Van",
    "lat": 22.2888,
    "lng": 103.9055,
    "address": "Ven suối Mường Hoa, bản Tả Van, thị xã Sa Pa",
    "description": "Homestay ven suối cuối bản Tả Van, tối nghe tiếng nước chảy, sáng đạp xe dọc thung lũng.",
    "price_range": "250.000 - 700.000đ/đêm",
    "best_season": "Thg3-Thg11",
    "rating": 4.4
  },
  {
    "id": "poi_070",
    "name": "Lao Chải Valley View Homestay",
    "category": "homestay",
    "commune": "Hoàng Liên",
    "lat": 22.3065,
    "lng": 103.874,
    "address": "Bản Lao Chải, thị xã Sa Pa, Lào Cai",
    "description": "Homestay đầu bản Lao Chải với sân hiên rộng nhìn trọn ruộng bậc thang, có phòng dorm và phòng gia đình.",
    "price_range": "250.000 - 700.000đ/đêm",
    "best_season": "Thg9-Thg11",
    "rating": 4.5
  },
  {
    "id": "poi_071",
    "name": "Nhà hàng Hoa Đào",
    "category": "nha_hang",
    "commune": "Trung tâm Sa Pa",
    "lat": 22.3358,
    "lng": 103.8438,
    "address": "18 Cầu Mây, thị xã Sa Pa, Lào Cai",
    "description": "Nhà hàng lâu năm nổi tiếng với lẩu cá hồi, cá tầm và các món nướng đặc sản vùng cao, không gian ấm cúng ngay trung tâm.",
    "price_range": "150.000 - 400.000đ/người",
    "phone": "0214 3871 340",
    "best_season": "Quanh năm",
    "rating": 4.5
  },
  {
    "id": "poi_072",
    "name": "Nhà hàng Sapa Cuisine",
    "category": "nha_hang",
    "commune": "Trung tâm Sa Pa",
    "lat": 22.3345,
    "lng": 103.8425,
    "address": "Đường Mường Hoa, thị xã Sa Pa, Lào Cai",
    "description": "Chuyên các món ăn dân tộc Mông, Dao chế biến hiện đại: thắng cố, lợn cắp nách, rau rừng xào, phục vụ khách đoàn.",
    "price_range": "120.000 - 350.000đ/người",
    "best_season": "Quanh năm",
    "rating": 4.4
  },
  {
    "id": "poi_073",
    "name": "Nhà hàng Gerbera Sapa",
    "category": "nha_hang",
    "commune": "Trung tâm Sa Pa",
    "lat": 22.337,
    "lng": 103.8445,
    "address": "Đường Thạch Sơn, thị xã Sa Pa, Lào Cai",
    "description": "Không gian sân vườn thoáng đãng, thực đơn kết hợp món Âu và món Việt, phù hợp cho các buổi tiệc tối lãng mạn.",
    "price_range": "150.000 - 450.000đ/người",
    "best_season": "Quanh năm",
    "rating": 4.5
  },
  {
    "id": "poi_074",
    "name": "Nhà hàng Little Sapa",
    "category": "nha_hang",
    "commune": "Trung tâm Sa Pa",
    "lat": 22.336,
    "lng": 103.842,
    "address": "16 Cầu Mây, thị xã Sa Pa, Lào Cai",
    "description": "Quán quen thuộc với khách Tây và khách nội địa, nổi bật với lẩu nấm, cá suối nướng và rượu ngô Bắc Hà.",
    "price_range": "120.000 - 300.000đ/người",
    "best_season": "Quanh năm",
    "rating": 4.4
  },
  {
    "id": "poi_075",
    "name": "Nhà hàng Bamboo",
    "category": "nha_hang",
    "commune": "Trung tâm Sa Pa",
    "lat": 22.3315,
    "lng": 103.8455,
    "address": "18 Mường Hoa, thị xã Sa Pa, Lào Cai",
    "description": "Trực thuộc Bamboo Sapa Hotel, phục vụ buffet sáng và các món Âu - Á view thung lũng Mường Hoa.",
    "price_range": "150.000 - 400.000đ/người",
    "best_season": "Quanh năm",
    "rating": 4.3
  },
  {
    "id": "poi_076",
    "name": "Nhà hàng Hill Station Deli & Boutique",
    "category": "nha_hang",
    "commune": "Trung tâm Sa Pa",
    "lat": 22.3352,
    "lng": 103.8408,
    "address": "37 Fansipan, thị xã Sa Pa, Lào Cai",
    "description": "Không gian mang phong cách Đông Dương xưa, nổi tiếng với món cá hồi hun khói và bánh mì kiểu Pháp.",
    "price_range": "180.000 - 500.000đ/người",
    "best_season": "Quanh năm",
    "rating": 4.6
  },
  {
    "id": "poi_077",
    "name": "Nhà hàng Sapa O'Chau",
    "category": "nha_hang",
    "commune": "Trung tâm Sa Pa",
    "lat": 22.334,
    "lng": 103.8465,
    "address": "8 Thác Bạc, thị xã Sa Pa, Lào Cai",
    "description": "Nhà hàng cộng đồng do người Mông vận hành, thực đơn thuần vị bản địa, một phần lợi nhuận hỗ trợ giáo dục trẻ em vùng cao.",
    "price_range": "80.000 - 250.000đ/người",
    "best_season": "Quanh năm",
    "rating": 4.5
  },
  {
    "id": "poi_078",
    "name": "Nhà hàng Song Nhi",
    "category": "nha_hang",
    "commune": "Trung tâm Sa Pa",
    "lat": 22.3398,
    "lng": 103.844,
    "address": "Đường Điện Biên Phủ, thị xã Sa Pa, Lào Cai",
    "description": "Quán quen của dân địa phương với phở cốn sủi, cơm lam và các món xào đơn giản, giá bình dân.",
    "price_range": "40.000 - 120.000đ/người",
    "best_season": "Quanh năm",
    "rating": 4.3
  },
  {
    "id": "poi_079",
    "name": "Nhà hàng Baguette & Chocolat",
    "category": "nha_hang",
    "commune": "Trung tâm Sa Pa",
    "lat": 22.3362,
    "lng": 103.8455,
    "address": "Thác Bạc, thị xã Sa Pa, Lào Cai",
    "description": "Quán ăn - đào tạo nghề cho thanh thiếu niên có hoàn cảnh khó khăn, nổi tiếng bánh mì Pháp và socola nóng.",
    "price_range": "60.000 - 180.000đ/người",
    "best_season": "Quanh năm",
    "rating": 4.6
  },
  {
    "id": "poi_080",
    "name": "Nhà hàng Hoàng Liên",
    "category": "nha_hang",
    "commune": "Trung tâm Sa Pa",
    "lat": 22.333,
    "lng": 103.8412,
    "address": "1 Hoàng Liên, thị xã Sa Pa, Lào Cai",
    "description": "Nhà hàng trong khuôn viên Hôtel de la Coupole, phong cách fine-dining với thực đơn Pháp - Việt kết hợp.",
    "price_range": "300.000 - 800.000đ/người",
    "best_season": "Quanh năm",
    "rating": 4.7
  },
  {
    "id": "poi_081",
    "name": "Nhà hàng Cầu Mây",
    "category": "nha_hang",
    "commune": "Trung tâm Sa Pa",
    "lat": 22.3355,
    "lng": 103.8422,
    "address": "Đường Cầu Mây, thị xã Sa Pa, Lào Cai",
    "description": "Nằm ngay phố ẩm thực sầm uất, chuyên đồ nướng: thịt lợn cắp nách, cá suối, rau cải mèo.",
    "price_range": "100.000 - 300.000đ/người",
    "best_season": "Quanh năm",
    "rating": 4.4
  },
  {
    "id": "poi_082",
    "name": "Nhà hàng Tả Van View",
    "category": "nha_hang",
    "commune": "Tả Van",
    "lat": 22.291,
    "lng": 103.9,
    "address": "Bản Tả Van, thị xã Sa Pa, Lào Cai",
    "description": "Nhà hàng sàn gỗ nhìn ra ruộng bậc thang Tả Van, phục vụ cơm lam, gà bản nướng và các món đặc sản dân tộc Giáy.",
    "price_range": "100.000 - 280.000đ/người",
    "best_season": "Thg9-Thg11",
    "rating": 4.5
  },
  {
    "id": "poi_083",
    "name": "Nhà hàng Mộc Sapa",
    "category": "nha_hang",
    "commune": "Trung tâm Sa Pa",
    "lat": 22.338,
    "lng": 103.842,
    "address": "Đường Thạch Sơn, thị xã Sa Pa, Lào Cai",
    "description": "Không gian gỗ mộc mạc, chuyên lẩu gà đen, lẩu cá tầm và rượu táo mèo tự ngâm.",
    "price_range": "150.000 - 350.000đ/người",
    "best_season": "Quanh năm",
    "rating": 4.4
  },
  {
    "id": "poi_084",
    "name": "Nhà hàng Việt Anh",
    "category": "nha_hang",
    "commune": "Trung tâm Sa Pa",
    "lat": 22.3325,
    "lng": 103.844,
    "address": "Đường Mường Hoa, thị xã Sa Pa, Lào Cai",
    "description": "Nhà hàng gia đình phục vụ khách đoàn với thực đơn set đa dạng món Việt, không gian rộng rãi.",
    "price_range": "100.000 - 250.000đ/người",
    "best_season": "Quanh năm",
    "rating": 4.3
  },
  {
    "id": "poi_085",
    "name": "Nhà hàng Sapa Rooms",
    "category": "nha_hang",
    "commune": "Trung tâm Sa Pa",
    "lat": 22.3368,
    "lng": 103.8398,
    "address": "18 Phạm Xuân Huân, thị xã Sa Pa, Lào Cai",
    "description": "Quán cà phê - nhà hàng trên cao view toàn cảnh thị trấn, món Âu và cocktail buổi tối.",
    "price_range": "150.000 - 400.000đ/người",
    "best_season": "Quanh năm",
    "rating": 4.5
  },
  {
    "id": "poi_086",
    "name": "Nhà hàng Anh Coong",
    "category": "nha_hang",
    "commune": "Trung tâm Sa Pa",
    "lat": 22.3315,
    "lng": 103.8385,
    "address": "Đường đi Cát Cát, thị xã Sa Pa, Lào Cai",
    "description": "Nhà hàng bình dân đông khách địa phương, nổi bật món lợn quay bản, đậu xị Sa Pa.",
    "price_range": "70.000 - 200.000đ/người",
    "best_season": "Quanh năm",
    "rating": 4.3
  },
  {
    "id": "poi_087",
    "name": "Nhà hàng Sapa Đông Nam Á",
    "category": "nha_hang",
    "commune": "Trung tâm Sa Pa",
    "lat": 22.334,
    "lng": 103.8435,
    "address": "Đường Fansipan, thị xã Sa Pa, Lào Cai",
    "description": "Thực đơn phong phú kết hợp món Việt, Thái và Trung, phục vụ nhóm đông và khách quốc tế.",
    "price_range": "100.000 - 300.000đ/người",
    "best_season": "Quanh năm",
    "rating": 4.2
  },
  {
    "id": "poi_088",
    "name": "Nhà hàng Lẩu Cá Hồi Sapa Farm",
    "category": "nha_hang",
    "commune": "Trung tâm Sa Pa",
    "lat": 22.336,
    "lng": 103.837,
    "address": "Đường Fansipan, thị xã Sa Pa, Lào Cai",
    "description": "Nhà hàng gắn với trại nuôi cá hồi, cá tầm tại chỗ, đảm bảo độ tươi cho món lẩu và gỏi cá đặc sản.",
    "price_range": "200.000 - 500.000đ/người",
    "best_season": "Quanh năm",
    "rating": 4.6
  },
  {
    "id": "poi_089",
    "name": "Nhà hàng Điện Biên Phủ Quán",
    "category": "nha_hang",
    "commune": "Trung tâm Sa Pa",
    "lat": 22.3328,
    "lng": 103.8392,
    "address": "Đường Điện Biên Phủ, thị xã Sa Pa, Lào Cai",
    "description": "Quán vỉa hè nổi tiếng với phở cốn sủi ông Há và các món ăn sáng đặc trưng Sa Pa.",
    "price_range": "30.000 - 80.000đ/người",
    "best_season": "Quanh năm",
    "rating": 4.5
  },
  {
    "id": "poi_090",
    "name": "Nhà hàng Ta Van Market Bistro",
    "category": "nha_hang",
    "commune": "Tả Van",
    "lat": 22.2898,
    "lng": 103.9022,
    "address": "Bản Tả Van, thị xã Sa Pa, Lào Cai",
    "description": "Bistro nhỏ trong bản Tả Van kết hợp món Âu nhẹ và đặc sản địa phương, không gian yên tĩnh view thung lũng.",
    "price_range": "100.000 - 280.000đ/người",
    "best_season": "Thg9-Thg11",
    "rating": 4.4
  }
]
