[
  {
    "id": "poi_001",
    "name": "Đồi Mâm Xôi",
    "category": "diem_ngam_canh",
    "commune": "La Pán Tẩn",
    "lat": 21.7929590730264,
    "lng": 104.15196265455785,
    "address": "Xã La Pán Tẩn, huyện Mù Cang Chải, Yên Bái",
    "description": "Cụm ruộng bậc thang hình mâm xôi nổi tiếng nhất Mù Cang Chải, điểm ngắm và chụp ảnh được yêu thích nhất vào mùa lúa chín.",
    "best_season": "Thg9-Thg10",
    "rating": 4.8
  },
  {
    "id": "poi_002",
    "name": "Ruộng bậc thang Chế Cu Nha",
    "category": "diem_ngam_canh",
    "commune": "Chế Cu Nha",
    "lat": 21.8331,
    "lng": 104.1067,
    "address": "Xã Chế Cu Nha, huyện Mù Cang Chải, Yên Bái",
    "description": "Danh thắng quốc gia ruộng bậc thang, địa hình dốc, tầng bậc dày đặc, ít khách hơn La Pán Tẩn nên còn giữ nét hoang sơ.",
    "best_season": "Thg9-Thg10",
    "rating": 4.6
  },
  {
    "id": "poi_003",
    "name": "Ruộng bậc thang Dế Xu Phình",
    "category": "diem_ngam_canh",
    "commune": "Dế Xu Phình",
    "lat": 21.8244,
    "lng": 104.0875,
    "address": "Xã Dế Xu Phình, huyện Mù Cang Chải, Yên Bái",
    "description": "Một trong ba vùng ruộng bậc thang được xếp hạng danh thắng quốc gia cùng La Pán Tẩn và Chế Cu Nha.",
    "best_season": "Thg9-Thg10",
    "rating": 4.5
  },
  {
    "id": "poi_004",
    "name": "Đèo Khau Phạ",
    "category": "diem_ngam_canh",
    "commune": "Cao Phạ",
    "lat": 21.775070502224587,
    "lng": 104.27168126012306,
    "address": "Xã Cao Phạ, huyện Mù Cang Chải, Yên Bái",
    "description": "Một trong tứ đại đỉnh đèo Tây Bắc, nổi tiếng với biển mây và là điểm bay dù lượn. Đẹp cả mùa nước đổ và mùa lúa chín.",
    "best_season": "Thg5-Thg6, Thg9-Thg10",
    "rating": 4.9
  },
  {
    "id": "poi_005",
    "name": "Vành Móng ngựa",
    "category": "diem_ngam_canh",
    "commune": "Thị Trấn Mù Cang Chải",
    "lat": 21.84951549840542,
    "lng": 104.10297825453432,
    "address": "Thị trấn Mù Cang Chải, huyện Mù Cang Chải, Yên Bái",
    "description": "Một trong tứ đại đỉnh đèo Tây Bắc, nổi tiếng với biển mây và là điểm bay dù lượn. Đẹp cả mùa nước đổ và mùa lúa chín.",
    "best_season": "Thg9-Thg10",
    "rating": 4.7
  },
  {
    "id": "poi_006",
    "name": "Homestay Suối Kim 2",
    "category": "homestay",
    "commune": "Púng Luông",
    "lat": 21.76591836707653,
    "lng": 104.17185629691919,
    "address": "Ngã Ba Kim, huyện Mù Cang Chải, Yên Bái",
    "description": "homestay nằm ở ngay trung tâm thị tứ Ngã Ba Kim, trên trục đường quốc lộ 32, là vị trí thuận lợi nhất để đi tới các địa danh du lịch tại Mù Cang Chải",
    "best_season": "Thg9-Thg10",
    "rating": 4.7
  },
  {
    "id": "poi_007",
    "name": "Garrya Mù Cang Chải",
    "category": "homestay",
    "commune": "Púng Luông",
    "lat": 21.80595273624208,
    "lng": 104.14396846808346,
    "address": "bản Pú Nhu, Púng Luôn, huyện Mù Cang Chải, Yên Bái",
    "description": "Resort 5 sao duy nhất ở Mù Cang Chải",
    "best_season": "Thg9-Thg10",
    "rating": 4.9
  },
  {
    "id": "poi_008",
    "name": "Hello Mù Cang Chải",
    "category": "homestay",
    "commune": "Púng Luông",
    "lat": 21.777688979440466,
    "lng": 104.17021438342915,
    "address": "Púng Luôn, huyện Mù Cang Chải, Yên Bái",
    "description": "Homestay có view thung lũng rộng để bạn ngắm nhìn ruộc bậc thang",
    "best_season": "Thg9-Thg10",
    "rating": 4.9
  },
  {
    "id": "poi_009",
    "name": "Bamboo Homestay Mù Cang Chải",
    "category": "homestay",
    "commune": "La Pán Tẩn",
    "lat": 21.780622975565176,
    "lng": 104.16957915273662,
    "address": "La Pán Tẩn, Mù Cang Chải, Yên Bái",
    "description": "homestay được thiết kế với chất liệu tre, gỗ mộc mạc view ruộng lúa",
    "best_season": "Thg9-Thg10",
    "rating": 4.9
  },
  {
    "id": "poi_010",
    "name": "Pú Nhu Homestay Mù Cang Chải",
    "category": "homestay",
    "commune": "Púng Luông",
    "lat": 21.802553723769744,
    "lng": 104.14808042575652,
    "address": "Mũi Giày, Khu Ba Nhà, Bản Pú Nhu, Púng Luông, Yên Bái",
    "description": "Nơi đây phù hợp với khách lẻ, gia đình nhỏ hoặc nhóm bạn muốn ở gần thị trấn để thuận tiện khám phá Mù Cang Chải.",
    "best_season": "Thg9-Thg10",
    "rating": 4.9
  },
  {
    "id": "poi_011",
    "name": "Rừng Trúc",
    "category": "diem_ngam_canh",
    "commune": "Púng Luông",
    "lat": 21.844789873756824,
    "lng": 104.11662471226732,
    "address": "Púng Luông, Yên Bái",
    "description": "Vẻ đẹp nguyên sơ: Hàng ngàn cây trúc thẳng tắp, cao vút đan xen vào nhau tạo thành một mái vòm xanh khổng lồ tạo thành không gian huyền ảo như trong phim kiếm hiệp",
    "best_season": "Thg9-Thg10",
    "rating": 4.9
  },
  {
    "id": "poi_012",
    "name": "Dò gừ",
    "category": "homestay",
    "commune": "Púng Luông",
    "lat": 21.78639041782642,
    "lng": 104.16878186993904,
    "address": "Púng Luông, Yên Bái",
    "description": "Homestay view nhìn ra ruộng bậc thang, có thể checkin. Phòng ốc sạch sẽ và ấm áp. Đồ ăn homestay nấu ngon",
    "best_season": "Thg9-Thg10",
    "rating": 4.9
  },
  {
    "id": "poi_013",
    "name": "Bản Lìm Mông",
    "category": "diem_ngam_canh",
    "commune": "Khâu Phạ",
    "lat": 21.781891,
    "lng": 104.288235,
    "address": "Púng Luông, Yên Bái",
    "description": "Nằm dưới chân đèo Khau Phạ ẩn mình trong sương, đây là một trong những bản làng của người Mông có vị trí cao và hiểm trở nhất, sở hữu những cung đường uốn lượn giữa các tầng ruộng bậc thang tuyệt đẹp.",
    "best_season": "Thg9-Thg10",
    "rating": 4.9
  },
  {
    "id": "poi_014",
    "name": "Thác Mơ",
    "category": "diem_ngam_canh",
    "commune": "Cao Phạ",
    "lat": 21.771962,
    "lng": 104.298211,
    "address": "Púng Luông, Yên Bái",
    "description": "Nằm dưới chân đèo Khau Phạ ẩn mình trong sương, đây là một trong những bản làng của người Mông có vị trí cao và hiểm trở nhất, sở hữu những cung đường uốn lượn giữa các tầng ruộng bậc thang tuyệt đẹp.",
    "best_season": "Thg9-Thg10",
    "rating": 4.9
  },
  {
    "id": "poi_015",
    "name": "Ruộng bậc thang Kim Nọi",
    "category": "diem_ngam_canh",
    "commune": "Kim Nọi",
    "lat": 21.849317,
    "lng": 104.088322,
    "address": "Púng Luông, Yên Bái",
    "description": "Một địa điểm ngắm ruộng bậc thang rất gần trung tâm thị trấn Mù Cang Chải. Nơi đây có bản làng của người Thái sinh sống, thích hợp cho những ai muốn kết hợp ngắm cảnh và tìm hiểu văn hóa bản địa mà không phải di chuyển quá xa.",
    "best_season": "Thg9-Thg10",
    "rating": 4.9
  },
  {
    "id": "poi_016",
    "name": "Lapantan Paradise Homestay",
    "category": "homestay",
    "commune": "La Pán Tẩn",
    "lat": 21.851234,
    "lng": 104.228765,
    "address": "Bản La Pán Tẩn, Mù Cang Chải, Yên Bái",
    "description": "View cực đẹp nhìn thẳng ra các triền ruộng bậc thang tầng tầng lớp lớp. Sân hiên rộng thích hợp tổ chức BBQ tối.",
    "best_season": "Thg9-Thg10",
    "rating": 4.7
  },
  {
    "id": "poi_017",
    "name": "Khau Phạ Homestay",
    "category": "homestay",
    "commune": "Cao Phạ",
    "lat": 21.761245,
    "lng": 104.279812,
    "address": "Đèo Khau Phạ, Cao Phạ, Mù Cang Chải, Yên Bái",
    "description": "Nằm ngay gần đỉnh đèo Khau Phạ, vị trí săn mây tuyệt vời vào sáng sớm và ngắm toàn cảnh thung lũng Cao Phạ mùa nước đổ.",
    "best_season": "Thg5-Thg10",
    "rating": 4.5
  },
  {
    "id": "poi_018",
    "name": "Sùng A hờ Homestay",
    "category": "homestay",
    "commune": "La Pán Tẩn",
    "lat": 21.856712,
    "lng": 104.221045,
    "address": "Bản La Pán Tẩn, Mù Cang Chải, Yên Bái",
    "description": "Gia chủ người Mông siêu mến khách. Homestay nhà sàn mộc mạc, phục vụ các món ăn gà đồi, lợn bản bản địa rất ngon.",
    "best_season": "Thg9-Thg10",
    "rating": 4.8
  },
  {
    "id": "poi_019",
    "name": "Mù Cang Chải BigHouse Homestay",
    "category": "homestay",
    "commune": "Thị trấn Mù Cang Chải",
    "lat": 21.846123,
    "lng": 104.086789,
    "address": "Tổ 2, Thị trấn Mù Cang Chải, Yên Bái",
    "description": "Nằm gần trung tâm thị trấn, thuận tiện đi lại ăn uống. Phòng ốc rộng rãi, sạch sẽ, có cả phòng dorm và phòng riêng.",
    "best_season": "Quanh năm",
    "rating": 4.6
  },
  {
    "id": "poi_020",
    "name": "Suối Kim Homestay",
    "category": "homestay",
    "commune": "Thị trấn Mù Cang Chải",
    "lat": 21.844312,
    "lng": 104.084512,
    "address": "Bản Thái, Thị trấn Mù Cang Chải, Yên Bái",
    "description": "Nằm trong bản Thái yên bình ngay sát thị trấn. View dòng suối chảy rì rào, phòng nghỉ nhà sàn rộng rãi, đậm đà bản sắc văn hóa Thái.",
    "best_season": "Quanh năm",
    "rating": 4.8
  },
  {
    "id": "poi_021",
    "name": "Nhà Sàn Hồng Mỳ Homestay",
    "category": "homestay",
    "commune": "Kim Nọi",
    "lat": 21.849122,
    "lng": 104.091122,
    "address": "Bản Kim Nọi, Mù Cang Chải, Yên Bái",
    "description": "Nhà sàn gỗ truyền thống của người Thái. Có khuôn viên sân vườn thoáng mát, chủ nhà nhiệt tình hướng dẫn các điểm tham quan.",
    "best_season": "Thg9-Thg10",
    "rating": 4.5
  },
  {
    "id": "poi_022",
    "name": "A Chông Homestay",
    "category": "homestay",
    "commune": "La Pán Tẩn",
    "lat": 21.859102,
    "lng": 104.224512,
    "address": "Bản La Pán Tẩn, Mù Cang Chải, Yên Bái",
    "description": "Nằm gần khu vực Đồi Mâm Xôi, thuận tiện cho việc dậy sớm đi bộ ra săn ảnh bình minh mà không lo tắc đường.",
    "best_season": "Thg9-Thg10",
    "rating": 4.7
  },
  {
    "id": "poi_023",
    "name": "Kiên Pành Homestay",
    "category": "homestay",
    "commune": "Kim Nọi",
    "lat": 21.846543,
    "lng": 104.092109,
    "address": "Bản Kim Nọi, Mù Cang Chải, Yên Bái",
    "description": "Không gian lưu trú đậm chất văn hóa Thái. Đội văn nghệ của bản thường có các buổi biểu diễn xòe Thái, nhảy sạp phục vụ du khách tại đây.",
    "best_season": "Quanh năm",
    "rating": 4.6
  },
  {
    "id": "poi_024",
    "name": "Dế Xu Phình Homestay",
    "category": "homestay",
    "commune": "Dế Xu Phình",
    "lat": 21.812341,
    "lng": 104.195432,
    "address": "Bản Dế Xu Phình, Mù Cang Chải, Yên Bái",
    "description": "Nằm ở khu vực yên tĩnh, ít xô bồ thương mại. Thích hợp cho những ai muốn trốn thành phố và trải nghiệm cuộc sống làm nông thực thụ.",
    "best_season": "Thg5-Thg10",
    "rating": 4.4
  },
  {
    "id": "poi_025",
    "name": "Mu Cang Chai Rice Field Homestay",
    "category": "homestay",
    "commune": "Chế Cu Nha",
    "lat": 21.838912,
    "lng": 104.141245,
    "address": "Bản Chế Cu Nha, Mù Cang Chải, Yên Bái",
    "description": "Bao bọc bởi các thửa ruộng bậc thang dốc ngút ngàn. Không khí buổi sáng trong lành, ban đêm có thể ngắm bầu trời sao rõ nét.",
    "best_season": "Thg9-Thg10",
    "rating": 4.7
  },
  {
    "id": "poi_026",
    "name": "A Cường Homestay",
    "category": "homestay",
    "commune": "Púng Luông",
    "lat": 21.789123,
    "lng": 104.162341,
    "address": "Ngã Ba Kim, Púng Luông, Mù Cang Chải, Yên Bái",
    "description": "Vị trí thuận lợi ngay ngã ba giao thông, phòng ốc dọn dẹp sạch sẽ gọn gàng, dịch vụ cho thuê xe máy uy tín và giá cả phải chăng.",
    "best_season": "Quanh năm",
    "rating": 4.5
  },
  {
    "id": "poi_027",
    "name": "Hạnh Đen Homestay",
    "category": "homestay",
    "commune": "Tú Lệ",
    "lat": 21.751243,
    "lng": 104.302341,
    "address": "Bản Bản Lướt, Tú Lệ, Văn Chấn, Yên Bái",
    "description": "Nằm sát thung lũng Tú Lệ, gần các điểm tắm khoáng nóng tự nhiên. Phục vụ đặc sản cốm nếp Tú Lệ dẻo thơm trứ danh.",
    "best_season": "Thg9-Thg10",
    "rating": 4.6
  },
  {
    "id": "poi_028",
    "name": "Nhà sàn Quân Poong",
    "category": "homestay",
    "commune": "Thị trấn Mù Cang Chải",
    "lat": 21.843112,
    "lng": 104.082314,
    "address": "Bản Thái, Thị trấn Mù Cang Chải, Yên Bái",
    "description": "Nhà sàn gỗ lợp mái lá cọ kiên cố, không gian mát mẻ về mùa hè, ấm áp về mùa đông. Đồ ăn tây bắc chế biến chuẩn vị.",
    "best_season": "Quanh năm",
    "rating": 4.7
  },
  {
    "id": "poi_029",
    "name": "Gia Bách Homestay",
    "category": "homestay",
    "commune": "Thị trấn Mù Cang Chải",
    "lat": 21.847654,
    "lng": 104.088912,
    "address": "Tổ 3, Thị trấn Mù Cang Chải, Yên Bái",
    "description": "Dạng nhà nghỉ kết hợp cấu trúc homestay hiện đại, phòng khép kín sạch sẽ phù hợp cho gia đình có con nhỏ thích tiện nghi.",
    "best_season": "Quanh năm",
    "rating": 4.3
  },
  {
    "id": "poi_030",
    "name": "Dream House Homestay",
    "category": "homestay",
    "commune": "La Pán Tẩn",
    "lat": 21.853211,
    "lng": 104.220122,
    "address": "Bản La Pán Tẩn, Mù Cang Chải, Yên Bái",
    "description": "Đúng như tên gọi, ngôi nhà mơ ước nằm giữa lưng chừng đồi lúa, thiết kế có nhiều góc kính lớn để tối ưu tầm nhìn ngắm cảnh.",
    "best_season": "Thg9-Thg10",
    "rating": 4.8
  },
  {
    "id": "poi_031",
    "name": "Nhà Bên Suối Homestay",
    "category": "homestay",
    "commune": "Tú Lệ",
    "lat": 21.753412,
    "lng": 104.306789,
    "address": "Sát suối Tú Lệ, Văn Chấn, Yên Bái",
    "description": "Vị trí nằm ngay cạnh dòng suối uốn lượn, nghe tiếng nước chảy thư giãn. Sân vườn có nhiều hoa và góc sống ảo.",
    "best_season": "Thg9-Thg10",
    "rating": 4.6
  },
  {
    "id": "poi_032",
    "name": "Mù Cang Chải Mountain View",
    "category": "homestay",
    "commune": "Púng Luông",
    "lat": 21.784512,
    "lng": 104.169912,
    "address": "Bản Ngả Ba Kim, Púng Luông, Mù Cang Chải, Yên Bái",
    "description": "Thiết kế ban công rộng mở hướng ra những dãy núi trùng điệp phía xa và cánh đồng bậc thang mướt mắt.",
    "best_season": "Thg5-Thg10",
    "rating": 4.7
  },
  {
    "id": "poi_033",
    "name": "Sùng A Bình Homestay",
    "category": "homestay",
    "commune": "La Pán Tẩn",
    "lat": 21.850451,
    "lng": 104.226789,
    "address": "Bản La Pán Tẩn, Mù Cang Chải, Yên Bái",
    "description": "Mang đậm nét mộc mạc nguyên bản của đời sống vùng cao, chủ nhà hỗ trợ dẫn tour đi bộ xuyên rừng trúc bản địa.",
    "best_season": "Thg9-Thg10",
    "rating": 4.6
  },
  {
    "id": "poi_034",
    "name": "Moon 2 Homestay",
    "category": "homestay",
    "commune": "Thị trấn Mù Cang Chải",
    "lat": 21.846781,
    "lng": 104.083211,
    "address": "Tổ 1, Thị trấn Mù Cang Chải, Yên Bái",
    "description": "Phòng ốc decore xinh xắn, sạch sẽ theo phong cách trẻ trung hiện đại kết hợp thổ cẩm. Vị trí trung tâm cực kỳ tiện lợi.",
    "best_season": "Quanh năm",
    "rating": 4.7
  },
  {
    "id": "poi_035",
    "name": "A Dê Homestay",
    "category": "homestay",
    "commune": "Dế Xu Phình",
    "lat": 21.809812,
    "lng": 104.192341,
    "address": "Bản Dế Xu Phình, Mù Cang Chải, Yên Bái",
    "description": "Nằm giữa bản người Mông yên bình, có dịch vụ ngâm chân thảo dược lá thuốc của người đồng bào sau ngày dài trekking mệt mỏi.",
    "best_season": "Thg9-Thg10",
    "rating": 4.5
  },
  {
    "id": "poi_036",
    "name": "Nhà sàn Hải Nguyễn",
    "category": "homestay",
    "commune": "Kim Nọi",
    "lat": 21.848123,
    "lng": 104.093412,
    "address": "Bản Kim Nọi, Mù Cang Chải, Yên Bái",
    "description": "Không gian sàn cộng đồng rất rộng, sức chứa lớn phù hợp cho các đoàn phượt đông người hoặc team building.",
    "best_season": "Quanh năm",
    "rating": 4.4
  },
  {
    "id": "poi_037",
    "name": "Lìm Mông Homestay",
    "category": "homestay",
    "commune": "Cao Phạ",
    "lat": 21.781245,
    "lng": 104.287654,
    "address": "Bản Lìm Mông, Cao Phạ, Mù Cang Chải, Yên Bái",
    "description": "Nằm ngay tại bản Lìm Mông dưới chân đèo, view ngước lên nhìn thấy mây vờn đỉnh núi vô cùng kỳ vĩ.",
    "best_season": "Thg5-Thg10",
    "rating": 4.6
  },
  {
    "id": "poi_038",
    "name": "Giàng A Súa Homestay",
    "category": "homestay",
    "commune": "Chế Cu Nha",
    "lat": 21.837123,
    "lng": 104.143412,
    "address": "Bản Chế Cu Nha, Mù Cang Chải, Yên Bái",
    "description": "Trải nghiệm dệt vải lanh cùng gia đình chủ nhà người Mông. View ruộng lúa hoang sơ chưa bị đô thị hóa.",
    "best_season": "Thg9-Thg10",
    "rating": 4.8
  },
  {
    "id": "poi_039",
    "name": "Mu Cang Chai Horizon Homestay",
    "category": "homestay",
    "commune": "La Pán Tẩn",
    "lat": 21.855122,
    "lng": 104.229012,
    "address": "Bản La Pán Tẩn, Mù Cang Chải, Yên Bái",
    "description": "Nằm tại vị trí có tầm nhìn thoáng đạt ngắm đường chân trời rực đỏ mỗi khi hoàng hôn buông xuống trên những sóng lúa.",
    "best_season": "Thg9-Thg10",
    "rating": 4.9
  },
  {
    "id": "poi_040",
    "name": "Nhà sàn Hương Thảo",
    "category": "homestay",
    "commune": "Thị trấn Mù Cang Chải",
    "lat": 21.842901,
    "lng": 104.081245,
    "address": "Bản Thái, Thị trấn Mù Cang Chải, Yên Bái",
    "description": "Chủ nhà phục vụ nhiệt tình các món cá suối nướng pa pỉnh tộp, thịt trâu gác bếp chuẩn vị Tây Bắc.",
    "best_season": "Quanh năm",
    "rating": 4.5
  },
  {
    "id": "poi_041",
    "name": "Tú Lệ Valley Homestay",
    "category": "homestay",
    "commune": "Tú Lệ",
    "lat": 21.754122,
    "lng": 104.309122,
    "address": "Bản Phạ dưới, Tú Lệ, Văn Chấn, Yên Bái",
    "description": "Homestay view ôm trọn thung lũng Tú Lệ trù phú, buổi sáng sớm sương mù giăng lối đẹp như tranh vẽ.",
    "best_season": "Thg5-Thg10",
    "rating": 4.6
  },
  {
    "id": "poi_042",
    "name": "Vàng A Chỉnh Homestay",
    "category": "homestay",
    "commune": "La Pán Tẩn",
    "lat": 21.852341,
    "lng": 104.223122,
    "address": "Bản La Pán Tẩn, Mù Cang Chải, Yên Bái",
    "description": "Địa điểm lưu trú ấm cúng, có khoảng sân rộng đốt lửa trại ban đêm giao lưu văn nghệ bản làng.",
    "best_season": "Thg9-Thg10",
    "rating": 4.7
  },
  {
    "id": "poi_043",
    "name": "Mù Cang Chải Riverside Homestay",
    "category": "homestay",
    "commune": "Thị trấn Mù Cang Chải",
    "lat": 21.845612,
    "lng": 104.085122,
    "address": "Đường bờ sông, Thị trấn Mù Cang Chải, Yên Bái",
    "description": "Không gian thoáng đãng nằm dọc theo con suối lớn trung tâm, tối đến mát mẻ, di chuyển ra chợ phiên rất gần.",
    "best_season": "Quanh năm",
    "rating": 4.4
  },
  {
    "id": "poi_044",
    "name": "Púng Luông Hill Homestay",
    "category": "homestay",
    "commune": "Púng Luông",
    "lat": 21.782134,
    "lng": 104.164567,
    "address": "Bản Púng Luông, Mù Cang Chải, Yên Bái",
    "description": "Nằm ẩn mình cạnh khu rừng trúc thơ mộng, không khí trong lành mát mẻ thích hợp nghỉ dưỡng chữa lành.",
    "best_season": "Quanh năm",
    "rating": 4.6
  },
  {
    "id": "poi_045",
    "name": "Giàng A Lử Homestay",
    "category": "homestay",
    "commune": "Chế Cu Nha",
    "lat": 21.834122,
    "lng": 104.146781,
    "address": "Bản Chế Cu Nha, Mù Cang Chải, Yên Bái",
    "description": "Phòng nghỉ vách gỗ đơn sơ nhưng đầy đủ chăn đệm ấm áp, view cửa sổ nhìn thẳng ra những tầng mây cuộn trên ruộng lúa.",
    "best_season": "Thg9-Thg10",
    "rating": 4.5
  },
  {
    "id": "poi_046",
    "name": "Thảo Nguyên Homestay",
    "category": "homestay",
    "commune": "Tú Lệ",
    "lat": 21.750912,
    "lng": 104.301122,
    "address": "Trung tâm xã Tú Lệ, Văn Chấn, Yên Bái",
    "description": "Nhà nghỉ dạng homestay sạch sẽ ngay mặt đường quốc lộ, xung quanh có nhiều nhà hàng ăn uống đặc sản.",
    "best_season": "Quanh năm",
    "rating": 4.2
  },
  {
    "id": "poi_047",
    "name": "Lý Biển Homestay",
    "category": "homestay",
    "commune": "Kim Nọi",
    "lat": 21.847122,
    "lng": 104.094512,
    "address": "Bản Kim Nọi, Mù Cang Chải, Yên Bái",
    "description": "Đón tiếp chu đáo tận tình, món ăn do gia đình tự nuôi trồng nấu nướng sạch sẽ, đậm hương vị quê hương.",
    "best_season": "Quanh năm",
    "rating": 4.7
  },
  {
    "id": "poi_048",
    "name": "A Lù Homestay Mâm Xôi",
    "category": "homestay",
    "commune": "La Pán Tẩn",
    "lat": 21.854122,
    "lng": 104.225112,
    "address": "Dưới chân Đồi Mâm Xôi, La Pán Tẩn, Yên Bái",
    "description": "Nằm ngay lối lên đồi mâm xôi nổi tiếng, cực kỳ thuận tiện cho lịch trình di chuyển ngắm lúa.",
    "best_season": "Thg9-Thg10",
    "rating": 4.6
  },
  {
    "id": "poi_049",
    "name": "Lìm Thái Eco Homestay",
    "category": "homestay",
    "commune": "Cao Phạ",
    "lat": 21.772134,
    "lng": 104.297654,
    "address": "Bản Lìm Thái, Cao Phạ, Mù Cang Chải, Yên Bái",
    "description": "Nằm yên bình bên dòng suối nhỏ của bản Lìm Thái, cảnh quan mộc mạc nguyên sơ không ồn ã.",
    "best_season": "Thg5-Thg10",
    "rating": 4.8
  },
  {
    "id": "poi_050",
    "name": "Giàng A Tiên Homestay",
    "category": "homestay",
    "commune": "Dế Xu Phình",
    "lat": 21.815612,
    "lng": 104.198912,
    "address": "Bản Dế Xu Phình, Mù Cang Chải, Yên Bái",
    "description": "Chủ nhà mến khách chia sẻ nhiều câu chuyện văn hóa lý thú, phòng ốc bài trí gọn gàng, ấm cúng.",
    "best_season": "Thg9-Thg10",
    "rating": 4.6
  },
  {
    "id": "poi_051",
    "name": "Mu Cang Chai Friendly Homestay",
    "category": "homestay",
    "commune": "Púng Luông",
    "lat": 21.785612,
    "lng": 104.167122,
    "address": "Bản Ngả Ba Kim, Púng Luông, Yên Bái",
    "description": "Không gian thân thiện đúng như tên gọi, mức giá bình dân phù hợp cho các bạn trẻ đi du lịch tự túc.",
    "best_season": "Quanh năm",
    "rating": 4.5
  },
  {
    "id": "poi_052",
    "name": "Nhà sàn Thu Thủy",
    "category": "homestay",
    "commune": "Thị trấn Mù Cang Chải",
    "lat": 21.843512,
    "lng": 104.083912,
    "address": "Bản Thái, Thị trấn Mù Cang Chải, Yên Bái",
    "description": "Cơ sở vật chất nhà sàn sạch sẽ khang trang, có dịch vụ tắm lá thuốc người Dao đỏ đóng chai.",
    "best_season": "Quanh năm",
    "rating": 4.4
  },
  {
    "id": "poi_053",
    "name": "Suối Khoáng Nóng Tú Lệ Homestay",
    "category": "homestay",
    "commune": "Tú Lệ",
    "lat": 21.752112,
    "lng": 104.304567,
    "address": "Bản Lướt, Xã Tú Lệ, Văn Chấn, Yên Bái",
    "description": "Điểm cộng lớn là nằm sát khu vực bể tắm khoáng công cộng của người dân bản, dễ dàng trải nghiệm văn hóa bản địa.",
    "best_season": "Thg9-Thg12",
    "rating": 4.6
  },
  {
    "id": "poi_054",
    "name": "Giàng A DE Homestay La Pán Tẩn",
    "category": "homestay",
    "commune": "La Pán Tẩn",
    "lat": 21.857812,
    "lng": 104.222341,
    "address": "Bản La Pán Tẩn, Mù Cang Chải, Yên Bái",
    "description": "Nằm chênh vênh bên sườn đồi mang lại góc nhìn cảnh quan ấn tượng xuống thung lũng lúa bên dưới.",
    "best_season": "Thg9-Thg10",
    "rating": 4.7
  },
  {
    "id": "poi_055",
    "name": "Xòe Thái Homestay",
    "category": "homestay",
    "commune": "Kim Nọi",
    "lat": 21.846122,
    "lng": 104.091912,
    "address": "Bản Kim Nọi, Mù Cang Chải, Yên Bái",
    "description": "Không gian lưu trú mộc mạc, đậm đà bản sắc. Thường xuyên tổ chức giao lưu lửa trại văn nghệ nhảy sạp cuối tuần.",
    "best_season": "Quanh năm",
    "rating": 4.5
  },
  {
    "id": "poi_056",
    "name": "A Thanh Homestay Chế Cu Nha",
    "category": "homestay",
    "commune": "Chế Cu Nha",
    "lat": 21.839122,
    "lng": 104.145612,
    "address": "Bản Chế Cu Nha, Mù Cang Chải, Yên Bái",
    "description": "Thích hợp cho các phượt thủ ưa khám phá nẻo đường hoang sơ, gia chủ nấu ăn đậm vị núi rừng.",
    "best_season": "Thg9-Thg10",
    "rating": 4.6
  },
  {
    "id": "poi_057",
    "name": "Mu Cang Chai Green View Homestay",
    "category": "homestay",
    "commune": "Púng Luông",
    "lat": 21.783412,
    "lng": 104.165412,
    "address": "Bản Púng Luông, Mù Cang Chải, Yên Bái",
    "description": "Bao quanh bởi vườn cây xanh và view ruộng bậc thang thoai thoải mướt mắt, không gian thư giãn lý tưởng.",
    "best_season": "Thg5-Thg10",
    "rating": 4.7
  },
  {
    "id": "poi_058",
    "name": "Hờ A Khua Homestay",
    "category": "homestay",
    "commune": "La Pán Tẩn",
    "lat": 21.854912,
    "lng": 104.227122,
    "address": "Bản La Pán Tẩn, Mù Cang Chải, Yên Bái",
    "description": "Nhà gỗ mộc phong cách người Mông bản địa, chăn đệm sạch sẽ, sưởi ấm bằng bếp củi hồng ấm áp.",
    "best_season": "Thg9-Thg10",
    "rating": 4.5
  },
  {
    "id": "poi_059",
    "name": "Nhà Sàn Lo Văn Thấm",
    "category": "homestay",
    "commune": "Thị trấn Mù Cang Chải",
    "lat": 21.844112,
    "lng": 104.082912,
    "address": "Bản Thái, Thị trấn Mù Cang Chải, Yên Bái",
    "description": "Nhà sàn gỗ lâu năm mộc mạc, lưu giữ nguyên vẹn nếp sống sinh hoạt truyền thống của đồng bào Thái trắng.",
    "best_season": "Quanh năm",
    "rating": 4.6
  },
  {
    "id": "poi_060",
    "name": "Sapa-MCC View Homestay",
    "category": "homestay",
    "commune": "Cao Phạ",
    "lat": 21.759122,
    "lng": 104.281234,
    "address": "Khu vực đỉnh đèo Khau Phạ, Yên Bái",
    "description": "Trạm dừng nghỉ kết hợp homestay view thung lũng mây lượn mướt mắt thích hợp săn mây sáng sớm.",
    "best_season": "Thg9-Thg12",
    "rating": 4.3
  },
  {
    "id": "poi_061",
    "name": "Vàng A Giao Homestay",
    "category": "homestay",
    "commune": "La Pán Tẩn",
    "lat": 21.851912,
    "lng": 104.221912,
    "address": "Bản La Pán Tẩn, Mù Cang Chải, Yên Bái",
    "description": "Chủ nhà vô cùng nhiệt tình, hỗ trợ khách thuê xe ôm bản địa giá chuẩn lên các điểm mâm xôi, móng ngựa.",
    "best_season": "Thg9-Thg10",
    "rating": 4.8
  },
  {
    "id": "poi_062",
    "name": "Đồi Móng Ngựa Homestay",
    "category": "homestay",
    "commune": "Thị trấn Mù Cang Chải",
    "lat": 21.850912,
    "lng": 104.103122,
    "address": "Bản Sáng Nhù, Thị trấn Mù Cang Chải, Yên Bái",
    "description": "Vị trí đắc địa ngay gần khu vực check-in đồi móng ngựa, lý tưởng để săn hoàng hôn mà không lo về muộn.",
    "best_season": "Thg9-Thg10",
    "rating": 4.6
  },
  {
    "id": "poi_063",
    "name": "Giàng A Khang Homestay",
    "category": "homestay",
    "commune": "Chế Cu Nha",
    "lat": 21.836122,
    "lng": 104.148122,
    "address": "Bản Chế Cu Nha, Mù Cang Chải, Yên Bái",
    "description": "Homestay nhỏ xinh của gia đình người Mông, bao quanh bởi sóng lúa rì rào, yên tĩnh và biệt lập.",
    "best_season": "Thg9-Thg10",
    "rating": 4.5
  },
  {
    "id": "poi_064",
    "name": "Bản Mông Ngọc Thúy Homestay",
    "category": "homestay",
    "commune": "Púng Luông",
    "lat": 21.787122,
    "lng": 104.166122,
    "address": "Ngã Ba Kim, Púng Luông, Yên Bái",
    "description": "Phòng ốc rộng rãi, có khoảng ban công nhìn ra thung lũng lúa nếp thoai thoải, phục vụ ăn uống gia đình chu đáo.",
    "best_season": "Quanh năm",
    "rating": 4.4
  },
  {
    "id": "poi_065",
    "name": "Cao Phạ Valley View",
    "category": "homestay",
    "commune": "Cao Phạ",
    "lat": 21.765612,
    "lng": 104.283412,
    "address": "Bản Lìm Mông, Cao Phạ, Mù Cang Chải, Yên Bái",
    "description": "Một góc nhìn tuyệt vời từ thung lũng hướng thẳng lên vách đá đèo Khau Phạ hùng vĩ, không gian lộng gió.",
    "best_season": "Thg5-Thg10",
    "rating": 4.6
  },
  {
    "id": "poi_066",
    "name": "Lương Cơ Homestay",
    "category": "homestay",
    "commune": "Tú Lệ",
    "lat": 21.753912,
    "lng": 104.303122,
    "address": "Bản Lướt, Tú Lệ, Văn Chấn, Yên Bái",
    "description": "Nhà sàn mái ngói thoáng đãng, chủ nhà mến khách, vị trí thuận lợi cho hành trình khám phá cung đường đèo.",
    "best_season": "Quanh năm",
    "rating": 4.3
  }
]