[
  {
    "id": "poi_001",
    "name": "Đồi Mâm Xôi - La Pán Tẩn",
    "category": "ruong_bac_thang",
    "commune": "La Pán Tẩn",
    "lat": 21.7863,
    "lng": 104.1129,
    "address": "Xã La Pán Tẩn, huyện Mù Cang Chải, Yên Bái",
    "description": "Cụm ruộng bậc thang hình mâm xôi nổi tiếng nhất Mù Cang Chải, điểm ngắm và chụp ảnh được yêu thích nhất vào mùa lúa chín.",
    "best_season": "Thg9-Thg10",
    "rating": 4.8
  },
  {
    "id": "poi_002",
    "name": "Ruộng bậc thang Chế Cu Nha",
    "category": "ruong_bac_thang",
    "commune": "Chế Cu Nha",
    "lat": 21.8331,
    "lng": 104.1067,
    "address": "Xã Chế Cu Nha, huyện Mù Cang Chải, Yên Bái",
    "description": "Danh thắng quốc gia ruộng bậc thang, địa hình dốc, tầng bậc dày đặc, ít khách hơn La Pán Tẩn nên còn giữ nét hoang sơ.",
    "best_season": "Thg9-Thg10",
    "rating": 4.6
  },
  {
    "id": "poi_003",
    "name": "Ruộng bậc thang Dế Xu Phình",
    "category": "ruong_bac_thang",
    "commune": "Dế Xu Phình",
    "lat": 21.8244,
    "lng": 104.0875,
    "address": "Xã Dế Xu Phình, huyện Mù Cang Chải, Yên Bái",
    "description": "Một trong ba vùng ruộng bậc thang được xếp hạng danh thắng quốc gia cùng La Pán Tẩn và Chế Cu Nha.",
    "best_season": "Thg9-Thg10",
    "rating": 4.5
  },
  {
    "id": "poi_004",
    "name": "Đèo Khau Phạ",
    "category": "diem_ngam_canh",
    "commune": "Cao Phạ",
    "lat": 21.8497,
    "lng": 104.3106,
    "address": "Xã Cao Phạ, huyện Mù Cang Chải, Yên Bái",
    "description": "Một trong tứ đại đỉnh đèo Tây Bắc, nổi tiếng với biển mây và là điểm bay dù lượn. Đẹp cả mùa nước đổ và mùa lúa chín.",
    "best_season": "Thg5-Thg6, Thg9-Thg10",
    "rating": 4.9
  },
  {
    "id": "poi_005",
    "name": "Thác Mơ",
    "category": "diem_ngam_canh",
    "commune": "Mồ Dề",
    "lat": 21.8629,
    "lng": 104.1364,
    "address": "Xã Mồ Dề, huyện Mù Cang Chải, Yên Bái",
    "description": "Thác nước ba tầng giữa rừng, cần đi bộ khoảng 30-45 phút từ chân núi, phù hợp cho khách thích trekking nhẹ.",
    "best_season": "Thg4-Thg8",
    "rating": 4.4
  },
  {
    "id": "poi_006",
    "name": "Hello Mu Cang Chai Homestay",
    "category": "homestay",
    "commune": "La Pán Tẩn",
    "lat": 21.7911,
    "lng": 104.1085,
    "address": "Xã La Pán Tẩn, huyện Mù Cang Chải, Yên Bái",
    "description": "Homestay view ruộng bậc thang, phòng cộng đồng và phòng riêng, phù hợp nhóm bạn/gia đình.",
    "price_range": "150.000-400.000đ/đêm",
    "rating": 4.5
  },
  {
    "id": "poi_007",
    "name": "Sang Village Homestay",
    "category": "homestay",
    "commune": "Dế Xu Phình",
    "lat": 21.8189,
    "lng": 104.0921,
    "address": "Xã Dế Xu Phình, huyện Mù Cang Chải, Yên Bái",
    "description": "Homestay của người Mông, kiến trúc nhà gỗ truyền thống, có tổ chức trải nghiệm văn hóa bản địa.",
    "price_range": "200.000-500.000đ/đêm",
    "rating": 4.6
  },
  {
    "id": "poi_008",
    "name": "Nhà hàng A Chu",
    "category": "nha_hang",
    "commune": "Thị trấn Mù Cang Chải",
    "lat": 21.8517,
    "lng": 104.0997,
    "address": "Thị trấn Mù Cang Chải, huyện Mù Cang Chải, Yên Bái",
    "description": "Quán ăn địa phương phục vụ các món dân tộc Mông: gà đen, lợn cắp nách, rau rừng.",
    "price_range": "100.000-250.000đ/người",
    "rating": 4.3
  },
  {
    "id": "poi_009",
    "name": "Chợ phiên Mù Cang Chải",
    "category": "le_hoi",
    "commune": "Thị trấn Mù Cang Chải",
    "lat": 21.8517,
    "lng": 104.0997,
    "address": "Thị trấn Mù Cang Chải, huyện Mù Cang Chải, Yên Bái",
    "description": "Chợ phiên vùng cao họp vào cuối tuần, bán nông sản, thổ cẩm, đồ dùng bản địa của người Mông, Thái.",
    "best_season": "Thứ 7, Chủ nhật hàng tuần",
    "rating": 4.2
  },
  {
    "id": "poi_010",
    "name": "Tuần Văn hóa Du lịch Mù Cang Chải",
    "category": "le_hoi",
    "commune": "Thị trấn Mù Cang Chải",
    "lat": 21.85,
    "lng": 104.1,
    "address": "Huyện Mù Cang Chải, Yên Bái",
    "description": "Sự kiện văn hóa - du lịch thường niên vào mùa lúa chín, gồm lễ hội, chợ phiên, các hoạt động trải nghiệm dù lượn trên mùa vàng.",
    "best_season": "Thg9-Thg10",
    "rating": 4.5
  },
  {
    "id": "poi_011",
    "name": "Xôi ngũ sắc & cơm lam Mù Cang Chải",
    "category": "dac_san",
    "commune": "Thị trấn Mù Cang Chải",
    "lat": 21.8517,
    "lng": 104.0997,
    "address": "Thị trấn Mù Cang Chải, huyện Mù Cang Chải, Yên Bái",
    "description": "Xôi ngũ sắc nhuộm từ lá cây rừng và cơm lam nướng trong ống nứa, đặc sản thường thấy ở các quán ven đường và chợ phiên.",
    "price_range": "20.000-50.000đ/phần",
    "rating": 4.4
  }
]